[{"address": "Birmingham, United States", "woeid": 2364559, "latitude": 33.5206608, "longitude": -86.80249}, {"address": "Caracas, Venezuela", "latitude": 10.491016, "longitude": -66.902061}, {"address": "Bandung, Indonesia", "latitude": -6.9147444, "longitude": 107.6098111}, {"address": "Detroit, United States", "latitude": 42.331427, "longitude": -83.0457538}, {"address": "Glasgow, United Kingdom", "latitude": 55.864237, "longitude": -4.251806}, {"address": "Las Vegas, United States", "latitude": 36.114646, "longitude": -115.172816}, {"address": "Sacramento, United States", "latitude": 38.5815719, "longitude": -121.4943996}, {"address": "Barquisimeto, Venezuela", "latitude": 10.0636111, "longitude": -69.3347222}, {"address": "Seattle, United States", "latitude": 47.6062095, "longitude": -122.3320708}, {"address": "Montreal, Canada", "latitude": 45.5086699, "longitude": -73.5539925}, {"address": "Monterrey, Mexico", "latitude": 25.673211, "longitude": -100.309201}, {"address": "Vancouver, Canada", "latitude": 49.261226, "longitude": -123.1139268}, {"address": "Atlanta, United States", "latitude": 33.7489954, "longitude": -84.3879824}, {"address": "Buenos Aires, Argentina", "latitude": -34.6084175, "longitude": -58.3731613}, {"address": "Indianapolis, United States", "latitude": 39.7685155, "longitude": -86.1580736}, {"address": "Valencia, Venezuela", "latitude": 10.174127, "longitude": -67.999815}, {"address": "Portland, United States", "latitude": 45.5234515, "longitude": -122.6762071}, {"address": "Houston, United States", "latitude": 29.7601927, "longitude": -95.3693896}, {"address": "Minneapolis, United States", "latitude": 44.9799654, "longitude": -93.2638361}, {"address": "Austin, United States", "latitude": 30.267153, "longitude": -97.7430608}, {"address": "São Paulo, Brazil", "latitude": -23.5489433, "longitude": -46.6388182}, {"address": "San Antonio, United States", "latitude": 29.4241219, "longitude": -98.4936282}, {"address": "Kuala Lumpur, Malaysia", "latitude": 3.139003, "longitude": 101.686855}, {"address": "Maracaibo, Venezuela", "latitude": 10.64504, "longitude": -71.637154}, {"address": "Milwaukee, United States", "latitude": 43.0389025, "longitude": -87.9064736}, {"address": "Providence, United States", "latitude": 41.8239891, "longitude": -71.4128343}, {"address": "Baltimore, United States", "latitude": 39.2903848, "longitude": -76.6121893}, {"address": "Amsterdam, Netherlands", "latitude": 52.3702157, "longitude": 4.8951679}, {"address": "Manchester, United Kingdom", "latitude": 53.479251, "longitude": -2.247926}, {"address": "San Francisco, United States", "latitude": 37.7749295, "longitude": -122.4194155}, {"address": "Boston, United States", "latitude": 42.3584308, "longitude": -71.0597732}, {"address": "London, United Kingdom", "latitude": 51.508129, "longitude": -0.128005}, {"address": "Santiago, Chile", "latitude": -33.4166667, "longitude": -70.55}, {"address": "Cincinnati, United States", "latitude": 39.1031182, "longitude": -84.5120196}, {"address": "Jakarta, Indonesia", "latitude": -6.211544, "longitude": 106.845172}, {"address": "Dublin, Ireland", "latitude": 53.344104, "longitude": -6.2674937}, {"address": "Tokyo, Japan", "latitude": 35.6894875, "longitude": 139.6917064}, {"address": "Pittsburgh, United States", "latitude": 40.4406248, "longitude": -79.9958864}, {"address": "Sydney, Australia", "latitude": -33.873651, "longitude": 151.2068896}, {"address": "Miami, United States", "latitude": 25.7889689, "longitude": -80.2264393}, {"address": "Mumbai, India", "latitude": 19.0759837, "longitude": 72.8776559}, {"address": "Tampa, United States", "latitude": 27.950575, "longitude": -82.4571776}, {"address": "Mexico City, Mexico", "latitude": 19.4326077, "longitude": -99.133208}, {"address": "Greensboro, United States", "latitude": 36.0726354, "longitude": -79.7919754}, {"address": "Toronto, Canada", "latitude": 43.653226, "longitude": -79.3831843}, {"address": "Salt Lake City, United States", "latitude": 40.7607793, "longitude": -111.8910474}, {"address": "Chicago, United States", "latitude": 41.8781136, "longitude": -87.6297982}, {"address": "Bogotá, Colombia", "latitude": 4.5980556, "longitude": -74.0758333}, {"address": "Lagos, Nigeria", "latitude": 6.4530556, "longitude": 3.3958333}, {"address": "Nashville, United States", "latitude": 36.1658899, "longitude": -86.7844432}, {"address": "New York, United States", "latitude": 40.7143528, "longitude": -74.0059731}, {"address": "San Diego, United States", "latitude": 32.7153292, "longitude": -117.1572551}, {"address": "New Haven, United States", "latitude": 41.3081527, "longitude": -72.9281577}, {"address": "Richmond, United States", "latitude": 37.5407246, "longitude": -77.4360481}, {"address": "Jackson, United States", "latitude": 32.2987573, "longitude": -90.1848103}, {"address": "Washington, United States", "latitude": 38.8951118, "longitude": -77.0363658}, {"address": "Philadelphia, United States", "latitude": 39.952335, "longitude": -75.163789}, {"address": "Norfolk, United States", "latitude": 36.8507689, "longitude": -76.2858726}, {"address": "Raleigh, United States", "latitude": 35.772096, "longitude": -78.6386145}, {"address": "Charlotte, United States", "latitude": 35.2270869, "longitude": -80.8431267}, {"address": "New Orleans, United States", "latitude": 29.9510658, "longitude": -90.0715323}, {"address": "Lima, Peru", "latitude": -12.0478158, "longitude": -77.0622028}, {"address": "Madrid, Spain", "latitude": 40.4166909, "longitude": -3.7003454}, {"address": "Tallahassee, United States", "latitude": 30.4382559, "longitude": -84.2807329}, {"address": "Dallas-Ft. Worth, United States", "latitude": 32.802955, "longitude": -96.769923}, {"address": "Cleveland, United States", "latitude": 41.4994954, "longitude": -81.6954088}, {"address": "Phoenix, United States", "latitude": 33.4483771, "longitude": -112.0740373}, {"address": "Memphis, United States", "latitude": 35.1495343, "longitude": -90.0489801}, {"address": "Columbus, United States", "latitude": 39.9611755, "longitude": -82.9987942}, {"address": "Birmingham, United Kingdom", "latitude": 52.486243, "longitude": -1.890401}, {"address": "St. Louis, United States", "latitude": 38.6270025, "longitude": -90.1994042}, {"address": "Orlando, United States", "latitude": 28.5383355, "longitude": -81.3792365}, {"address": "Denver, United States", "latitude": 39.7391536, "longitude": -104.9847034}, {"address": "Johannesburg, South Africa", "latitude": -26.2041028, "longitude": 28.0473051}, {"address": "Los Angeles, United States", "latitude": 34.0522342, "longitude": -118.2436849}, {"address": "Harrisburg, United States", "latitude": 40.2737002, "longitude": -76.8844179}, {"address": "Baton Rouge, United States", "latitude": 30.4582829, "longitude": -91.1403196}, {"address": "Santo Domingo, Dominican Republic", "latitude": 18.5, "longitude": -69.9833333}, {"address": "Rio de Janeiro, Brazil", "latitude": -22.9035393, "longitude": -43.2095869}]